City_ID,City,Lat,Lng,Max Temp,Humidity,Cloudiness,Wind Speed,Country,Date
0,Udachny,66.4167,112.4,-16.58,93,100,2.55,RU,1731195404
1,Sretensk,52.2453,117.7093,-13.89,89,16,1.68,RU,1731195406
2,Wailua homesteads,22.0669,-159.378,27.44,79,75,7.2,US,1731195408
3,Edinburgh of the seven seas,-37.0676,-12.3116,15.39,91,100,3.75,SH,1731195431
4,Calvinia,-31.4707,19.776,15.38,46,2,2.68,ZA,1731195470
5,Invercargill,-46.4,168.35,17.79,48,100,0.89,NZ,1731195472
6,Port-aux-francais,-49.35,70.2167,5.14,83,87,11.46,TF,1731195474
7,Guayaramerin,-10.8368,-65.3614,23.78,95,80,1.4,BO,1731195476
8,Stanley,54.868,-1.6985,6.82,97,75,0.51,GB,1731195478
9,Al jawf,29.5,38.75,18.15,63,44,3.04,SA,1731195482
10,Pitkyaranta,61.5734,31.4792,1.07,80,58,3.71,RU,1731195484
11,Qaqortoq,60.7167,-46.0333,-0.4,98,100,2.37,GL,1731195486
12,Blackmans bay,-43.0167,147.3167,15.29,52,66,1.34,AU,1731195488
13,Aykhal,66.0,111.5,-15.21,91,100,6.54,RU,1731195490
14,Cairo,30.0626,31.2497,20.42,77,20,0.0,EG,1731195003
15,Hamilton,39.1834,-84.5333,15.05,56,100,2.06,US,1731195493
16,Waitangi,-43.9535,-176.5597,12.89,86,92,4.7,NZ,1731195495
17,Flying fish cove,-10.4217,105.6791,26.82,89,100,5.14,CX,1731195497
18,Mascouche,45.7496,-73.5996,5.86,57,0,3.29,CA,1731195499
19,Longyearbyen,78.2186,15.6401,-4.09,74,75,1.54,SJ,1731195501
20,Bani walid,31.7566,13.9942,17.35,73,1,1.77,LY,1731195503
21,Talnakh,69.4865,88.3972,-20.9,95,40,2.42,RU,1731195504
22,Novoishimskiy,53.1981,66.7694,0.27,97,100,9.17,KZ,1731195506
23,Lionel town,17.8101,-77.2406,25.75,83,100,0.06,JM,1731195508
24,Luderitz,-26.6481,15.1594,13.95,95,61,3.84,NA,1731195510
25,Maputo,-25.9653,32.5892,23.82,83,20,0.51,MZ,1731195377
26,Papatowai,-46.5619,169.4708,14.2,53,99,4.47,NZ,1731195514
27,Fort bragg,35.139,-79.006,16.01,62,0,0.45,US,1731195516
28,Bilibino,68.0546,166.4372,-23.74,99,96,0.59,RU,1731195517
29,Langtoucun,40.0261,124.3286,11.4,61,100,0.69,CN,1731195519
30,Bethel,41.3712,-73.414,7.28,44,0,1.34,US,1731195521
31,Yuzhno-kurilsk,44.0306,145.8556,9.0,67,18,1.62,RU,1731195523
32,Nzega,-2.479,29.5564,13.63,85,100,1.86,RW,1731195525
33,Impfondo,1.6381,18.0667,20.7,99,100,0.54,CG,1731195527
34,Dhidhdhoo,6.8833,73.1,27.97,70,40,0.6,MV,1731195529
35,Atafu village,-8.5421,-172.5159,28.33,70,79,3.54,TK,1731195531
36,Seven pagodas,12.6264,80.1722,25.74,76,86,4.8,IN,1731195532
37,Ponta delgada,37.7333,-25.6667,20.4,88,75,4.63,PT,1731195534
38,Sitka,57.0531,-135.33,7.94,66,75,5.14,US,1731195536
39,Arraial do cabo,-22.9661,-42.0278,22.78,83,100,6.57,BR,1731195540
40,Enewetak,11.3474,162.3373,28.44,79,19,6.27,MH,1731195542
41,Valley city,46.9233,-98.0032,7.29,100,100,0.0,US,1731195544
42,Al burayqah,30.4062,19.5739,18.78,64,1,3.88,LY,1731195546
43,Cidade velha,14.9167,-23.6167,26.26,73,0,4.63,CV,1731195548
44,Khandyga,62.6667,135.6,-16.55,98,98,0.99,RU,1731195551
45,Kharsia,21.9667,83.1167,19.12,67,0,0.88,IN,1731195553
46,Chernyshevsk,52.5243,117.0174,-14.5,84,3,1.15,RU,1731195555
47,Launceston,-41.45,147.1667,15.8,41,0,2.57,AU,1731195393
48,Oranjemund,-28.55,16.4333,14.79,96,63,2.48,NA,1731195559
49,Grytviken,-54.2811,-36.5092,-4.78,70,11,4.39,GS,1731195560
50,La passe,45.5549,-0.8967,14.44,93,23,2.95,FR,1731195563
51,Nichinan,31.6,131.3667,18.78,91,100,2.96,JP,1731195564
52,Pemba,-12.974,40.5178,26.15,81,12,2.48,MZ,1731195566
53,Ust-nera,64.5667,143.2,-21.78,96,100,1.02,RU,1731195568
54,Yekaterinoslavka,50.3734,129.1139,2.16,98,100,6.87,RU,1731195570
55,Port isabel,26.0734,-97.2086,26.02,77,0,5.36,US,1731195572
56,Constantia,44.1833,28.65,6.5,84,93,4.32,RO,1731195574
57,Bathsheba,13.2167,-59.5167,29.34,79,20,6.69,BB,1731195575
58,Vadso,70.0744,29.7487,3.09,70,75,5.14,NO,1731195577
59,Adamstown,-25.066,-130.1015,23.27,85,100,9.4,PN,1731195579
60,St. john's,47.5649,-52.7093,4.43,91,100,12.52,CA,1731195581
61,Ribeira grande,38.5167,-28.7,20.99,97,100,2.68,PT,1731195583
62,Malango,-2.9627,119.9001,23.73,79,65,0.55,ID,1731195584
63,Albany,42.6001,-73.9662,5.88,56,0,2.47,US,1731195586
64,Port alfred,-33.5906,26.891,16.27,76,26,2.59,ZA,1731195588
65,Martapura,-3.4167,114.85,24.05,94,20,2.06,ID,1731195590
66,La gomera,14.0833,-91.05,26.84,91,96,1.43,GT,1731195592
67,Saipan,15.1355,145.701,29.39,82,20,6.69,MP,1731195594
68,Mae ramat,16.984,98.5166,21.11,89,57,0.83,TH,1731195595
69,Kismayo,-0.3582,42.5454,26.41,81,12,4.33,SO,1731195597
70,Margaret river,-33.95,115.0667,14.5,58,5,1.93,AU,1731195599
71,Sept-iles,50.2001,-66.3821,-1.0,72,20,4.12,CA,1731195601
72,Codrington,-38.2667,141.9667,16.27,54,42,3.94,AU,1731195605
73,Port mathurin,-19.6833,63.4167,24.19,87,57,7.46,MU,1731195608
74,Ramban,33.25,75.25,14.69,47,0,2.87,IN,1731195609
75,Ilulissat,69.2167,-51.1,-4.99,74,100,4.63,GL,1731195611
76,Koungheul,13.9833,-14.8,27.12,22,1,1.08,SN,1731195613
77,Mil'kovo,55.6078,37.7956,7.41,62,100,5.28,RU,1731195615
78,La'ie,21.6477,-157.9253,27.98,76,23,2.68,US,1731195617
79,Awjilah,29.1081,21.2869,16.06,54,0,3.21,LY,1731195619
80,Bredasdorp,-34.5322,20.0403,16.41,79,41,5.85,ZA,1731195621
81,Georgetown,5.4112,100.3354,26.96,82,20,1.54,MY,1731195623
82,West island,-12.1568,96.8225,25.99,83,40,6.69,CC,1731195625
83,Arkhangel'sk,64.5401,40.5433,2.06,100,40,2.0,RU,1731195627
84,Chui,-33.6971,-53.4616,14.32,81,0,3.02,UY,1731195629
85,Utrik,11.2278,169.8474,28.4,74,81,9.7,MH,1731195630
86,An nimas,19.1455,42.1201,12.98,38,1,3.33,SA,1731195632
87,Mar del plata,-38.0023,-57.5575,22.01,68,0,5.66,AR,1731195634
88,Gadzhiyevo,69.2551,33.3362,2.87,78,99,10.18,RU,1731195636
89,Rongelap,11.1635,166.8941,28.18,80,80,9.89,MH,1731195638
90,Nadym,65.5333,72.5167,-6.84,95,100,7.7,RU,1731195640
91,Ayr,55.4627,-4.6339,7.99,81,75,2.06,GB,1731195642
92,Nova sintra,14.8667,-24.7167,26.45,76,57,5.56,CV,1731195643
93,Boa vista,2.8197,-60.6733,32.99,49,0,1.54,BR,1731195645
94,Usogorsk,63.4106,48.6872,-2.46,86,95,4.34,RU,1731195647
95,Phetchaburi,12.9667,99.5833,21.71,88,49,1.22,TH,1731195649
96,Cabedelo,-6.9811,-34.8339,26.37,76,64,5.83,BR,1731195651
97,Richards bay,-28.783,32.0377,20.17,89,100,3.94,ZA,1731195652
98,Kailua-kona,19.6406,-155.9956,27.98,79,75,3.6,US,1731195654
99,Tecax,20.2,-89.2833,24.16,94,86,0.54,MX,1731195656
100,Ballina,-28.8667,153.5667,24.29,75,81,1.23,AU,1731195658
101,Kingston,17.997,-76.7936,26.53,83,75,3.09,JM,1731195660
102,Ushuaia,-54.8,-68.3,6.81,81,40,1.54,AR,1731195661
103,Mercedes,-34.6515,-59.4307,22.66,45,0,5.86,AR,1731195663
104,Puerto natales,-51.7236,-72.4875,10.25,53,40,8.23,CL,1731195665
105,Whitehorse,60.7161,-135.0538,2.43,64,40,6.17,CA,1731195667
106,Ghadamis,30.1337,9.5007,20.42,34,24,3.66,LY,1731195669
107,Kununurra,-15.7667,128.7333,31.99,70,75,2.57,AU,1731195670
108,Port lincoln,-34.7333,135.8667,16.61,70,62,6.5,AU,1731195672
109,Coron,11.9986,120.2043,28.32,77,10,1.81,PH,1731195674
110,Rio grande,-32.035,-52.0986,17.06,73,0,4.55,BR,1731195676
111,Ambovombe,-25.1667,46.0833,22.61,81,22,0.92,MG,1731195678
112,Usinsk,65.9939,57.5281,-10.55,93,20,5.35,RU,1731195586
113,Colares,38.7992,-9.4469,15.5,73,16,6.14,PT,1731195681
114,Namibe,-15.1961,12.1522,20.84,68,89,4.55,AO,1731195683
115,Pandan,14.0453,124.1694,27.32,88,100,5.95,PH,1731195685
116,Vallenar,-28.5708,-70.7581,14.77,64,1,1.65,CL,1731195686
117,Saint-philippe,-21.3585,55.7679,23.79,88,42,4.73,RE,1731195690
118,Ugoofaaru,5.6667,73.0,27.48,74,44,0.81,MV,1731195692
119,Smithers,54.7804,-127.1743,2.18,75,20,1.03,CA,1731195694
120,Puerto baquerizo moreno,-0.9,-89.6,20.93,74,41,4.39,EC,1731195695
121,Marsa alam,25.0757,34.8918,22.52,69,37,2.25,EG,1731195697
122,Hadibu,12.65,54.0333,25.55,81,84,4.36,YE,1731195699
123,Dryden,49.7833,-92.7503,10.16,53,75,4.63,CA,1731195701
124,Upper grand lagoon,30.1633,-85.7408,26.08,78,0,2.57,US,1731195703
125,Hermanus,-34.4187,19.2345,17.11,86,23,6.44,ZA,1731195704
126,Ronne,55.1009,14.7066,5.95,87,100,3.09,DK,1731195706
127,Rada tilly,-45.9333,-67.5333,18.27,20,0,12.86,AR,1731195708
128,Punta arenas,-53.15,-70.9167,9.06,81,40,1.54,CL,1731195710
129,Avarua,-21.2078,-159.775,24.03,57,75,6.17,CK,1731195712
130,Iqaluit,63.7506,-68.5145,-8.15,78,100,6.71,CA,1731195714
131,Klyuchi,52.2667,79.1667,-3.23,89,100,9.83,RU,1731195715
132,Yellowknife,62.456,-114.3525,-13.1,86,100,3.09,CA,1731195717
133,Dwarka,22.2394,68.9678,27.16,67,6,4.71,IN,1731195719
134,As sulayyil,20.4607,45.5779,19.84,42,2,3.25,SA,1731195721
135,Pacific grove,36.6177,-121.9166,16.16,62,0,3.13,US,1731195723
136,Tiksi,71.6872,128.8694,-13.74,93,100,3.22,RU,1731195725
137,Conceicao da barra,-18.5933,-39.7322,24.02,97,100,1.72,BR,1731195727
138,Kapa'a,22.0752,-159.319,28.18,79,75,7.2,US,1731195728
139,Noshiro,40.2039,140.0242,2.46,69,7,1.95,JP,1731195730
140,Puerto madryn,-42.7692,-65.0385,21.95,19,99,9.63,AR,1731195732
141,Alotau,-10.3069,150.4462,29.44,67,100,2.7,PG,1731195734
142,Muroto-misakicho,33.2833,134.15,19.19,67,99,4.49,JP,1731195736
143,Tolanaro,-25.0319,46.9987,24.04,88,20,6.17,MG,1731195738
144,Tura,25.5198,90.2201,18.89,80,0,1.75,IN,1731195739
145,Sao joao da barra,-21.6403,-41.0511,22.01,87,100,6.66,BR,1731195741
146,New norfolk,-42.7826,147.0587,15.95,36,53,3.38,AU,1731195658
147,Puerto ayora,-0.7393,-90.3518,21.97,89,17,2.24,EC,1731195745
148,Ar ruways,24.1103,52.7306,24.05,74,0,1.44,AE,1731195747
149,Apolinario saravia,-24.4328,-63.9954,27.25,56,63,1.68,AR,1731195749
150,Selendi,38.7444,28.8678,6.69,51,80,2.12,TR,1731195750
151,Mount vernon,40.9126,-73.8371,11.47,41,0,0.89,US,1731195686
152,Yeppoon,-23.1333,150.7333,26.69,67,52,5.54,AU,1731195754
153,Taquarana,-9.645,-36.4972,22.76,81,87,6.02,BR,1731195756
154,Mata-utu,-13.2816,-176.1745,27.67,76,80,5.38,WF,1731195758
155,Diawara,15.022,-12.5437,27.68,15,0,3.47,SN,1731195760
156,Kruisfontein,-34.0033,24.7314,15.83,72,100,1.97,ZA,1731195762
157,Susuman,62.7833,148.1667,-30.46,98,98,0.49,RU,1731195764
158,Mufumbwe,-13.6833,24.8,21.27,57,76,1.86,ZM,1731195766
159,Quatre cocos,-20.2078,57.7625,25.06,89,28,4.31,MU,1731195768
160,Angaur state,6.906,134.13,28.93,75,90,3.36,PW,1731195770
161,College,64.8569,-147.8028,-7.01,73,40,1.54,US,1731195771
162,Forster,-32.1667,152.5167,26.88,64,72,2.68,AU,1731195773
163,Carauari,-4.8828,-66.8958,25.09,92,99,1.16,BR,1731195775
164,Hawaiian paradise park,19.5933,-154.9731,27.16,77,40,2.57,US,1731195777
165,Chimore,-16.9833,-65.1333,27.48,65,72,1.05,BO,1731195779
166,Nyrob,60.733,56.7202,-3.48,79,100,5.09,RU,1731195781
167,Nemuro,43.3236,145.575,7.13,76,35,3.96,JP,1731195782
168,San andres,12.5847,-81.7006,29.01,74,40,3.09,CO,1731195784
169,Tazovsky,67.4667,78.7,-7.54,94,100,9.11,RU,1731195786
170,Vorkuta,67.5,64.0,-11.28,86,82,7.26,RU,1731195788
171,Obihiro,42.9172,143.2044,0.67,54,19,0.35,JP,1731195790
172,Badger,64.8,-147.5333,-7.05,81,0,1.54,US,1731195791
173,Fayzabad,37.1166,70.58,9.5,85,100,1.31,AF,1731195793
174,Borgarnes,64.5383,-21.9206,7.46,93,100,2.78,IS,1731195795
175,Puerto leguizamo,-0.1934,-74.7819,24.33,95,76,0.59,CO,1731195797
176,Taulaga,-11.0553,-171.0883,28.17,71,14,1.52,AS,1731195799
177,East london,-33.0153,27.9116,17.12,80,18,2.1,ZA,1731195800
178,Baihar,22.1,80.55,16.6,76,0,0.8,IN,1731195802
179,Montesilvano marina,42.5167,14.15,15.04,90,100,3.13,IT,1731195804
180,Kodiak,57.79,-152.4072,3.73,87,100,12.86,US,1731195806
181,Taoudenni,22.6783,-3.9836,23.91,21,65,5.51,ML,1731195808
182,Howard springs,-12.497,131.047,31.04,79,12,2.48,AU,1731195809
183,Puerto deseado,-47.7503,-65.8938,16.11,27,43,13.08,AR,1731195811
184,Tchintabaraden,15.8969,5.7985,22.04,20,22,4.7,NE,1731195813
185,Malanje,-9.5402,16.341,18.04,99,97,1.65,AO,1731195815
186,Lebu,-37.6167,-73.65,11.07,88,90,2.47,CL,1731195817
187,Al kharijah,25.4514,30.5464,17.62,45,0,3.08,EG,1731195818
188,Oswego,43.4501,-76.1497,1.64,90,4,0.87,US,1731195820
189,El granada,37.5027,-122.4694,19.68,52,0,3.09,US,1731195822
190,Rikaze,29.25,88.8833,1.08,63,0,1.36,CN,1731195824
191,Crucecita,-28.95,-58.9833,20.69,57,0,4.02,AR,1731195826
192,Calama,-22.4667,-68.9333,20.27,11,0,12.35,CL,1731195827
193,Katsuren-haebaru,26.3369,127.8719,26.72,90,75,3.09,JP,1731195829
194,Alappuzha,9.49,76.3264,25.26,85,90,2.73,IN,1731195831
195,Tsiombe,-25.3,45.4833,21.89,86,9,1.34,MG,1731195833
196,Mount gambier,-37.8333,140.7667,17.41,48,7,2.04,AU,1731195835
197,Tangalle,6.024,80.7911,24.46,91,58,1.98,LK,1731195836
198,Barah,13.7,30.3667,24.61,22,2,5.2,SD,1731195838
199,Andergrove,-21.0833,149.1833,26.09,72,97,3.83,AU,1731195840
200,Prince rupert,54.3161,-130.3201,8.05,72,0,6.69,CA,1731195844
201,The pas,53.8251,-101.2541,6.01,65,0,2.57,CA,1731195846
202,Sisimiut,66.9395,-53.6735,-4.24,89,100,3.6,GL,1731195847
203,Klimavichy,53.6135,31.9385,2.25,95,29,2.92,BY,1731195849
204,Stjordalshalsen,63.4681,10.9262,3.84,100,64,2.57,NO,1731195851
205,Sefwi wiawso,6.2044,-2.4886,22.33,99,45,1.04,GH,1731195853
206,Kabare,-2.4683,28.8242,17.23,89,100,1.1,CD,1731195855
207,Pesqueira,-8.3578,-36.6964,20.16,80,89,5.48,BR,1731195859
208,Ulaangom,49.9811,92.0667,-5.84,41,75,2.16,MN,1731195860
209,Olonkinbyen,70.9221,-8.7187,0.98,100,100,6.93,SJ,1731195862
210,Bel ombre,-4.6167,55.4167,26.91,78,20,0.51,SC,1731195864
211,Nanzhang chengguanzhen,31.7839,111.8275,13.65,81,2,0.53,CN,1731195866
212,Fukayacho,36.2,139.2833,12.91,43,59,2.15,JP,1731195868
213,Sao vicente,-23.9631,-46.3919,20.55,26,99,1.43,BR,1731195870
214,Amos,48.5669,-78.1162,1.36,59,5,4.92,CA,1731195871
215,Fort st. john,56.2499,-120.8529,3.94,48,75,3.6,CA,1731195873
216,Chapaev,50.2,51.1667,2.82,87,44,7.52,KZ,1731195875
217,Alo,6.5486,4.2686,25.57,86,98,1.25,NG,1731195877
218,Nicoya,10.1483,-85.452,22.75,96,100,0.55,CR,1731195879
219,Isfara,40.1265,70.6253,5.68,77,7,1.76,TJ,1731195881
220,Alghero,40.5589,8.3181,13.05,100,49,1.54,IT,1731195883
221,Isafjordur,66.0755,-23.124,4.35,98,100,2.22,IS,1731195885
222,Constitucion,-35.3333,-72.4167,14.42,84,100,6.09,CL,1731195886
223,Selfoss,63.9331,-20.9971,10.02,96,100,7.75,IS,1731195888
224,Lihue,21.9789,-159.3672,27.77,77,75,7.2,US,1731195890
225,Arenapolis,-14.4503,-56.8461,22.84,89,100,1.7,BR,1731195892
226,Cabo san lucas,22.8909,-109.9124,28.17,58,0,6.17,MX,1731195241
227,Klaksvik,62.2266,-6.589,9.08,97,97,9.53,FO,1731195897
228,Gamba,-2.65,10.0,23.13,94,100,0.98,GA,1731195899
229,Slave lake,55.2834,-114.769,2.99,70,75,1.03,CA,1731195901
230,Kristiansund,63.1115,7.732,7.85,93,100,2.06,NO,1731195903
231,Shingu,33.7333,135.9833,17.93,73,100,4.04,JP,1731195905
232,Severnoye,56.3491,78.3619,-3.54,92,100,8.48,RU,1731195907
233,Iscar,41.3434,-4.5246,12.2,58,94,1.95,ES,1731195908
234,Maragogi,-9.0122,-35.2225,24.67,81,9,4.69,BR,1731195910
235,Misratah,32.3754,15.0925,20.86,63,17,2.87,LY,1731195912
236,Wewak,-3.5534,143.6268,29.28,71,95,1.3,PG,1731195914
237,Egilsstadir,65.2653,-14.3948,11.95,71,75,7.2,IS,1731195916
238,Palpa,-14.5336,-75.1856,20.22,64,23,1.82,PE,1731195917
239,Santiago de cao,-7.9589,-79.2392,18.07,88,96,3.09,PE,1731195919
240,Lewistown,40.5992,-77.5714,7.31,77,0,0.0,US,1731195921
241,Thompson,55.7435,-97.8558,4.09,56,20,3.6,CA,1731195923
242,Gorno-altaysk,51.9561,85.955,-1.52,46,96,3.08,RU,1731195924
243,Coquimbo,-29.9533,-71.3436,14.85,72,20,4.12,CL,1731195926
244,Kourou,5.1552,-52.6478,26.79,84,4,4.71,GF,1731195928
245,Kaka,37.3482,59.6143,8.37,58,46,1.94,TM,1731195930
246,Carnarvon,-24.8667,113.6333,21.48,63,21,8.18,AU,1731195932
247,Chonchi,-42.6128,-73.8092,10.62,84,63,1.02,CL,1731195934
248,Simanggang,1.2472,111.4528,23.99,94,91,0.0,MY,1731195935
249,Monrovia,6.3005,-10.7969,26.44,79,99,2.22,LR,1731195937
250,Okondja,-0.6549,13.6753,20.56,99,100,0.82,GA,1731195939
251,Nar'yan-mar,67.6713,53.087,-6.59,84,88,4.14,RU,1731195941
252,Keflavik,64.0049,-22.5624,9.24,100,100,7.2,IS,1731195943
253,Gorontalo,0.5412,123.0595,27.6,82,96,0.86,ID,1731195944
254,Robat karim,35.4846,51.0829,8.71,66,20,4.12,IR,1731195946
255,Nayoro,44.3506,142.4578,4.94,67,18,3.78,JP,1731195787
256,Yenotayevka,47.2456,47.0281,6.92,73,93,3.7,RU,1731195950
257,Alice springs,-23.7,133.8833,24.75,47,100,3.09,AU,1731195952
258,Valuyki,50.2035,38.1067,2.44,90,22,2.63,RU,1731195953
259,Kokopo,-4.352,152.2633,28.45,75,98,2.75,PG,1731195955
260,Berezovyy,51.6667,135.7,-1.02,68,99,0.67,RU,1731195957
261,Dien bien phu,21.3833,103.0167,18.49,92,16,0.79,VN,1731195959
262,Muisne,0.6,-80.0333,23.94,78,95,4.09,EC,1731195961
263,Salalah,17.0151,54.0924,24.05,78,0,0.51,OM,1731195963
264,Hithadhoo,-0.6,73.0833,28.26,71,92,5.28,MV,1731195965
265,Nogliki,51.8333,143.1667,-0.08,65,69,3.86,RU,1731195966
266,Male,4.1748,73.5089,26.97,89,40,2.57,MV,1731195969
267,Baharly,38.4362,57.4316,9.89,59,22,2.45,TM,1731195971
268,Hailar,49.2,119.7,-3.84,53,31,7.57,CN,1731195973
269,Farafangana,-22.8167,47.8333,24.0,81,92,4.25,MG,1731195974
270,Iskushuban,10.2837,50.23,21.91,77,99,3.39,SO,1731195976
271,Flin flon,54.7682,-101.865,5.91,52,20,3.6,CA,1731195978
272,Port elizabeth,-33.918,25.5701,15.16,97,40,1.54,ZA,1731195980
273,Mandera,3.9366,41.867,27.45,59,27,5.99,KE,1731195982
274,Kudymkar,59.0173,54.656,0.94,97,100,5.85,RU,1731195983
275,Borujen,31.9652,51.2873,7.89,56,100,0.85,IR,1731195985
276,Luanda,-8.8368,13.2343,25.0,83,75,1.54,AO,1731195987
277,Manggar,-2.8833,108.2667,29.0,70,100,0.85,ID,1731195989
278,Le pouliguen,47.2697,-2.4278,11.97,85,78,2.11,FR,1731195991
279,Martil,35.6166,-5.2752,19.98,77,100,4.12,MA,1731195993
280,Afaahiti,-17.75,-149.2833,24.61,89,86,6.29,PF,1731195994
281,Kone,-21.0595,164.8658,31.36,35,0,3.78,NC,1731195996
282,Olot,42.181,2.4901,11.21,94,28,1.81,ES,1731195998
283,Labytnangi,66.6572,66.4183,-15.7,88,71,3.59,RU,1731196000
284,Pirallahi,40.4723,50.333,10.08,75,28,4.76,AZ,1731196002
285,Medina,24.4686,39.6142,27.24,22,0,3.09,SA,1731196003
286,Petropavlovsk-kamchatsky,53.0452,158.6483,-6.67,63,75,5.0,RU,1731196005
287,Dolinsk,47.35,142.8,6.18,87,85,5.55,RU,1731196007
288,Bealanana,-14.55,48.7333,16.47,88,0,0.66,MG,1731196009
289,Labrador city,52.9463,-66.9114,-4.9,70,75,3.09,CA,1731196010
290,Lysianka,49.2523,30.8295,1.66,88,9,1.99,UA,1731196012
291,Girvan,55.2426,-4.8555,8.02,81,95,3.94,GB,1731196014
292,Bahau,2.8079,102.4049,26.84,94,100,1.7,MY,1731196018
293,Sinop,41.7711,34.8709,5.27,88,5,3.1,TR,1731196020
294,Bardai,11.65,7.2333,19.57,29,47,3.78,NG,1731196021
295,Port saint john's,-31.6229,29.5448,18.56,88,100,2.58,ZA,1731196023
296,Acarau,-2.8856,-40.12,25.71,81,36,7.89,BR,1731196027
297,Psebay,44.1234,40.8107,3.27,68,3,2.09,RU,1731196029
298,Balykchy,42.4557,76.1861,1.7,56,70,0.9,KG,1731196030
299,Vorgashor,67.5833,63.95,-11.36,87,77,7.44,RU,1731196032
300,Anadyr,64.75,177.4833,-5.72,92,20,1.0,RU,1731196034
301,Lata,40.1629,-8.3327,10.6,89,85,1.42,PT,1731196036
302,Igrim,63.1906,64.4162,-9.76,91,28,3.96,RU,1731196038
303,Mynamaki,60.7446,22.0243,4.5,97,34,1.55,FI,1731196039
304,Kalispell,48.1958,-114.3129,2.88,85,100,0.0,US,1731196043
305,Papao,-17.75,-149.55,27.82,91,71,7.38,PF,1731196045
306,Lompoc,34.6391,-120.4579,20.23,29,0,4.12,US,1731196047
307,Lerwick,60.1545,-1.1494,9.71,73,100,7.78,GB,1731196048
308,Port hope,43.9408,-82.7127,7.04,65,99,2.57,US,1731196050
309,Praia da vitoria,38.7333,-27.0667,20.14,94,40,3.58,PT,1731196052
310,Okha,53.5739,142.9478,-1.93,77,100,3.23,RU,1731196054
311,Henryetta,35.4398,-95.9819,18.97,64,0,2.98,US,1731196056
312,Bonthe,7.5264,-12.505,25.8,82,66,1.99,SL,1731196057
313,Bac lieu,9.285,105.7244,26.82,85,100,6.7,VN,1731196059
314,Kakata,6.53,-10.3517,23.92,94,98,1.35,LR,1731196061
315,Kostomuksha,64.571,30.5767,-0.72,75,15,4.13,RU,1731196063
316,Kota bharu,6.1333,102.2386,23.97,100,20,1.03,MY,1731196065
317,Seminole,28.7086,-81.2081,25.23,81,0,3.6,US,1731196066
318,Moranbah,-22.0016,148.0466,32.33,32,81,6.09,AU,1731196068
319,Madaoua,14.073,5.96,22.59,19,15,4.28,NE,1731196070
320,Mikun',62.3547,50.0771,-2.76,84,98,4.64,RU,1731196072
321,Barranca,-10.75,-77.7667,18.59,81,85,3.7,PE,1731196074
322,Sarrebourg,48.7333,7.05,6.52,90,6,1.09,FR,1731196076
323,Pechea,45.6333,27.8,5.74,71,78,7.62,RO,1731196078
324,Caleta olivia,-46.4393,-67.5281,15.13,27,4,13.55,AR,1731196080
325,Katabu,-4.9333,122.5167,28.01,78,81,1.72,ID,1731196081
326,Zeya,53.75,127.2667,-5.84,91,100,3.34,RU,1731196083
327,Carutapera,-1.195,-46.02,26.37,80,32,4.29,BR,1731196085
328,Nadi,-17.8,177.4167,29.0,61,40,6.17,FJ,1731196009
329,Vincentown,39.934,-74.7485,9.14,48,0,2.57,US,1731196089
330,Fort mcmurray,56.7268,-111.381,5.73,48,75,1.03,CA,1731196004
331,Yakeshi,49.2833,120.7333,-3.63,55,42,8.59,CN,1731196092
332,Las tablas,7.7667,-80.2833,23.99,99,100,0.66,PA,1731196094
333,Margate,51.3813,1.3862,8.16,85,75,3.62,GB,1731196096
334,Hasaki,35.7333,140.8333,18.02,81,98,6.18,JP,1731196097
335,Allapalli,19.4167,80.0667,18.53,77,0,0.75,IN,1731196099
336,Nizhnesortymskiy,62.4397,71.7603,-10.28,90,96,7.65,RU,1731196101
337,Khorinsk,52.1657,109.7726,-13.3,93,47,0.25,RU,1731196103
338,Sona,45.4388,10.8255,7.51,100,100,1.54,IT,1731196105
339,Guerrero negro,27.9769,-114.0611,20.76,36,0,4.41,MX,1731196107
340,Yamada,39.4667,141.95,11.88,62,7,1.25,JP,1731196109
341,Bamboo flat,11.7,92.7167,28.05,83,40,2.57,IN,1731196110
342,Pingliang,35.5392,106.6861,7.45,60,40,0.88,CN,1731196112
343,Kayenta,36.7278,-110.2546,9.01,35,0,0.48,US,1731196116
344,Lushun,38.8,121.2667,16.12,75,91,4.44,CN,1731196118
345,Ust'-barguzin,53.45,108.9833,-6.5,74,60,0.96,RU,1731196120
346,Acapulco de juarez,16.8634,-99.8901,25.4,78,85,2.66,MX,1731196122
347,Korsakov,46.6328,142.7813,1.91,82,68,4.91,RU,1731196123
348,Honggang,46.4667,124.8667,7.46,55,100,8.23,CN,1731196125
349,Champerico,14.3,-91.9167,27.33,80,83,2.41,GT,1731196127
350,Lubango,-14.9172,13.4925,16.92,94,94,1.54,AO,1731196129
351,Dudinka,69.4058,86.1778,-17.32,90,57,4.48,RU,1731196130
352,Abqaiq,25.9371,49.6776,22.16,45,2,3.19,SA,1731196132
353,Ghat,24.9647,10.1728,17.13,40,0,1.18,LY,1731196134
354,Saldanha,-33.0117,17.9442,15.03,89,3,6.53,ZA,1731196136
355,Rapar,23.5667,70.6333,25.34,65,2,2.5,IN,1731196138
356,Cardigan,52.0847,-4.6591,11.05,92,100,3.67,GB,1731196140
357,Conde,-7.2597,-34.9075,25.7,78,40,2.06,BR,1731196141
358,Tindouf,27.6711,-8.1474,24.25,19,0,1.03,DZ,1731196143
359,Altoona,40.5187,-78.3947,8.56,46,77,1.74,US,1731196145
360,Galliano,29.4422,-90.2992,26.0,83,100,4.12,US,1731196147
361,Parauna,-16.9478,-50.4486,20.82,94,66,1.75,BR,1731196149
362,Saint-pierre,-21.3393,55.4781,22.82,78,20,1.03,RE,1731196150
363,Kabansk,52.0486,106.6528,-5.12,70,55,2.53,RU,1731196152
364,Saynshand,44.8824,110.1163,-0.65,32,2,1.64,MN,1731196154
365,Souillac,-20.5167,57.5167,25.21,88,40,4.12,MU,1731196156
366,Stonehaven,56.9637,-2.2118,8.29,99,97,3.21,GB,1731196158
367,Valparaiso,-33.0393,-71.6273,20.13,68,0,4.63,CL,1731196160
368,Noumea,-22.2763,166.4572,28.33,99,0,7.99,NC,1731196161
369,Pudasjarvi,65.3833,26.9167,-0.37,75,59,1.52,FI,1731196163
370,Nchelenge,-9.3451,28.734,24.32,70,63,3.72,ZM,1731196165
371,Taroa,8.7058,171.2275,28.38,68,97,10.64,MH,1731196167
372,Vrangel',42.7297,133.0839,9.63,89,43,1.18,RU,1731196169
373,Watford city,47.8022,-103.2832,8.92,57,74,1.54,US,1731196171
374,Bubaque,11.2833,-15.8333,28.76,68,0,4.62,GW,1731196172
375,El porvenir,13.7617,-87.3458,22.41,95,93,1.36,HN,1731196174
376,Leava,-14.3,-178.1667,27.31,78,98,5.41,WF,1731196176
377,Porvoo,60.3923,25.6651,3.52,95,35,1.16,FI,1731196178
378,Uturoa,-16.7333,-151.4333,27.62,75,63,3.14,PF,1731196180
379,Pauini,-7.7136,-66.9764,23.91,85,98,0.75,BR,1731196182
380,Alexandria,31.2156,29.9553,20.24,61,23,4.14,EG,1731196183
381,Chibougamau,49.9168,-74.3659,-1.21,74,100,6.17,CA,1731196185
382,Digboi,27.3833,95.6333,16.91,90,0,0.38,IN,1731196187
383,Batticaloa,7.7102,81.6924,24.97,87,84,4.15,LK,1731196189
384,Santa ana,33.7456,-117.8678,25.46,26,0,4.12,US,1731195794
385,Las heras,-46.5419,-68.9359,11.54,33,9,11.61,AR,1731196192
386,Axim,4.8699,-2.2405,24.02,94,89,1.19,GH,1731196194
387,Manokwari,-0.8667,134.0833,27.89,73,88,0.26,ID,1731196196
388,Ostrov,57.3439,28.3537,6.56,86,100,1.94,RU,1731196198
389,Dapa,9.7594,126.0531,27.61,81,80,3.99,PH,1731196200
390,Aasiaat,68.7098,-52.8699,-3.4,82,100,5.89,GL,1731196201
391,Suntar,62.1444,117.6319,-7.62,90,100,3.89,RU,1731196203
392,Ta`u,-14.2336,-169.5144,27.01,81,42,8.24,AS,1731196205
393,Quesnel,52.9999,-122.5029,5.28,75,40,2.06,CA,1731196207
394,Jamestown,42.097,-79.2353,8.8,63,0,2.57,US,1731196209
395,Chanal,16.7167,-92.4,14.12,99,86,1.19,MX,1731196211
396,Berezovo,63.9381,65.0419,-9.04,87,47,5.13,RU,1731196213
397,Sarmiento,-45.5882,-69.07,11.43,37,0,17.21,AR,1731196214
398,Mpongwe,-13.5091,28.155,19.46,68,83,2.02,ZM,1731196216
399,Yaren,-0.5472,166.916,27.74,66,50,3.44,NR,1731196218
400,N'zeto,-7.2312,12.8666,25.3,86,100,3.59,AO,1731196220
401,Watertown,42.3709,-71.1828,7.97,39,0,3.58,US,1731196222
402,Lagunas,-5.2269,-75.6753,23.99,96,84,1.21,PE,1731196224
403,Callao,-12.0667,-77.15,22.07,68,0,7.2,PE,1731196225
404,Nyurba,63.2842,118.3319,-8.49,93,100,3.61,RU,1731196227
405,Maricopa,33.0581,-112.0476,22.36,18,0,2.57,US,1731196229
406,Ceeldheer,3.8488,47.1806,25.16,91,27,3.08,SO,1731196231
407,Colchani,-20.3,-66.9333,14.15,38,67,6.37,BO,1731196233
408,Novyy urengoy,66.0833,76.6333,-6.51,95,100,7.94,RU,1731196234
409,Chernyshevskiy,63.0128,112.4714,-11.26,93,100,3.79,RU,1731196236
410,Shevchenko,48.5,35.0,3.96,81,4,1.42,UA,1731196238
411,Fale old settlement,-9.3852,-171.2468,28.41,75,71,5.04,TK,1731196240
412,Corner brook,48.9667,-57.9484,0.67,78,44,4.87,CA,1731196242
413,Camana,-16.6228,-72.7111,18.67,80,4,2.18,PE,1731196243
414,Ancud,-41.8697,-73.8203,10.77,78,89,2.34,CL,1731196245
415,Vilyuchinsk,52.9306,158.4028,-5.85,77,47,2.25,RU,1731196247
416,Ta'izz,13.5,44.0,18.12,76,20,2.55,YE,1731196249
417,Divnogorsk,55.9594,92.3619,-3.73,55,76,5.66,RU,1731196251
418,Petrov val,50.1434,45.2096,2.77,87,21,6.45,RU,1731196253
419,Amga,60.8953,131.9608,-15.54,97,98,0.77,RU,1731196255
420,Imbituba,-28.24,-48.6703,16.79,72,13,2.42,BR,1731196257
421,Minab,27.1467,57.0801,24.86,51,0,1.01,IR,1731196259
422,Makarska,43.2969,17.0178,13.55,51,5,2.47,HR,1731196261
423,Mount isa,-20.7333,139.5,36.87,12,74,4.12,AU,1731196262
424,Portland,45.5234,-122.6762,13.3,78,100,2.06,US,1731195777
425,Agalatovo,60.2195,30.2739,0.81,93,5,2.14,RU,1731196266
426,Palmer,42.1584,-72.3287,5.84,44,1,1.54,US,1731196271
427,Ulety,51.3572,112.4849,-10.78,92,8,1.75,RU,1731196273
428,Mounana,-1.4085,13.1586,20.18,99,100,0.9,GA,1731196275
429,Korla,41.7597,86.1469,6.72,63,61,1.15,CN,1731196277
430,Dalhart,36.0595,-102.5133,11.01,46,0,4.63,US,1731196279
431,Christchurch,-43.5333,172.6333,18.56,59,91,8.23,NZ,1731196040
432,Sabha,27.0377,14.4283,16.81,38,0,4.22,LY,1731196282
433,Veternik,45.2533,19.7594,6.04,54,97,2.55,RS,1731196284
434,Shangrao,28.4532,117.9686,17.16,97,99,1.75,CN,1731196250
435,Plettenberg bay,-34.0527,23.3716,15.83,81,65,1.38,ZA,1731196288
436,Baie-comeau,49.2168,-68.1489,-0.18,59,0,3.09,CA,1731196290
437,Ashburton,-37.8626,145.0794,18.98,60,10,0.89,AU,1731196291
438,Volzhskiy,48.7858,44.7797,3.89,80,30,4.21,RU,1731196293
439,Nuuk,64.1835,-51.7216,-1.66,86,100,2.57,GL,1731196295
440,Coari,-4.085,-63.1414,26.76,74,90,1.01,BR,1731196297
441,Vidyayevo,69.3191,32.8049,1.79,77,100,9.91,RU,1731196299
442,Kirakira,-10.4544,161.9205,28.73,80,83,3.31,SB,1731196301
443,Bintulu,3.1667,113.0333,24.23,94,20,1.03,MY,1731196303
444,Baranivka,50.2969,27.6622,1.09,86,22,0.79,UA,1731196304
445,Happy valley-goose bay,53.3168,-60.3315,-2.83,63,0,4.63,CA,1731196306
446,Trumann,35.6737,-90.5073,16.06,98,93,2.46,US,1731196308
447,Issia,6.4922,-6.5856,22.32,92,99,1.26,CI,1731196310
448,Waterford,42.7023,-83.4027,9.02,73,75,3.6,US,1731196312
449,Ikwiriri,-7.9562,38.9716,22.87,94,5,0.85,TZ,1731196314
450,Inhambane,-23.865,35.3833,21.45,88,89,2.01,MZ,1731196315
451,Buala,-8.145,159.5921,28.84,74,100,3.88,SB,1731196317
452,Fuglafjordur,62.244,-6.814,8.79,96,81,7.63,FO,1731196319
453,Naze,28.3667,129.4833,24.51,82,99,7.3,JP,1731196321
454,Charters towers,-20.1,146.2667,30.63,42,25,7.02,AU,1731196323
455,Djambala,-2.5447,14.7533,18.43,97,100,1.82,CG,1731196324
456,Bati,11.1833,40.0167,17.05,53,7,2.91,ET,1731196326
457,Paradip garh,20.3167,86.6167,21.89,80,0,3.97,IN,1731196328
458,Cumberland,35.0502,-78.8664,16.28,62,0,1.54,US,1731196330
459,El calafate,-50.3408,-72.2768,8.14,66,40,5.85,AR,1731196332
460,Dogondoutchi,13.6393,4.0287,24.42,19,34,4.02,NE,1731196333
461,Kattivakkam,13.2167,80.3167,26.65,98,100,4.78,IN,1731196335
462,Kutaisi,42.2496,42.6997,9.43,62,0,4.63,GE,1731196337
463,Gibara,21.1097,-76.1317,25.38,88,84,6.09,CU,1731196339
464,Sofifi,0.7349,127.576,28.06,77,100,0.77,ID,1731196343
465,Scottburgh,-30.2867,30.7532,18.46,93,100,3.04,ZA,1731196345
466,Vila franca do campo,37.7167,-25.4333,20.23,99,98,2.5,PT,1731196346
467,Rotorua,-38.1387,176.2452,19.99,59,100,2.55,NZ,1731196348
468,Elizabeth city,36.2946,-76.2511,11.12,70,51,2.38,US,1731196350
469,Remire-montjoly,4.9167,-52.2667,28.02,83,0,3.09,GF,1731196352
470,Griffith,41.5284,-87.4237,11.28,71,100,5.66,US,1731196354
471,Dnipro,48.45,34.9833,3.3,82,4,1.48,UA,1731196355
472,Tarko-sale,64.9225,77.785,-5.95,95,100,9.58,RU,1731196357
473,Tarauaca,-8.1614,-70.7656,23.33,87,100,1.2,BR,1731196359
474,Tilcara,-23.5776,-65.3509,10.34,93,88,1.94,AR,1731196361
475,Buchanan,5.8808,-10.0467,26.56,82,95,3.5,LR,1731196363
476,Cooma,-36.2333,149.1333,21.38,19,76,0.49,AU,1731196365
477,Broome,42.2506,-75.833,5.0,66,1,0.43,US,1731196366
478,Manati,18.4275,-66.4921,26.76,95,100,0.6,PR,1731196368
479,Bandarbeyla,9.4942,50.8122,25.09,76,100,6.3,SO,1731196370
480,Zarghun shahr,32.8473,68.4457,5.84,54,1,2.4,AF,1731196372
481,Urangan,-25.3,152.9,24.66,78,84,4.74,AU,1731196374
482,Dawei,14.0833,98.2,23.74,86,72,1.95,MM,1731196376
483,Belmonte,-15.8631,-38.8828,25.47,88,48,4.92,BR,1731196377
484,Vangaindrano,-23.35,47.6,21.62,92,48,1.43,MG,1731196379
485,San luis,-33.295,-66.3356,23.9,48,1,2.97,AR,1731196381
486,Manakara,-22.1333,48.0167,20.4,95,23,1.88,MG,1731196383
487,Broken hill,-31.95,141.4333,21.83,33,97,5.4,AU,1731196385
488,Umba,66.6871,34.3429,1.17,74,20,5.78,RU,1731196387
489,Moberly,39.4184,-92.4382,11.07,93,100,3.6,US,1731196357
490,Walvis bay,-22.9575,14.5053,15.53,82,15,1.54,NA,1731196390
491,Bengkulu,-3.8004,102.2655,25.0,88,100,1.14,ID,1731196392
492,Newman,37.3138,-121.0208,20.59,34,82,1.04,US,1731196396
493,Ketchikan,55.3422,-131.6461,6.99,87,100,4.12,US,1731196398
494,Sumbawa besar,-8.5,117.4333,30.19,63,54,1.18,ID,1731196399
495,Holualoa,19.6228,-155.9522,25.91,77,75,3.6,US,1731196401
496,Sumenep,-7.0167,113.8667,29.59,66,94,4.31,ID,1731196403
497,Bukama,-9.2,25.85,20.06,96,100,1.13,CD,1731196405
498,Isangel,-19.55,169.2667,26.06,69,20,3.09,VU,1731196407
499,Jian'ou,27.0469,118.3253,19.4,86,99,1.2,CN,1731196408
500,Ulladulla,-35.35,150.4667,19.2,62,86,6.45,AU,1731196412
501,Tofol,5.3248,163.0078,29.25,71,11,5.78,FM,1731196414
502,Modimolle,-24.7,28.4,22.53,53,100,1.16,ZA,1731196416
503,Iskateley,67.6803,53.1512,-6.6,84,91,4.05,RU,1731196418
504,Okhotsk,59.3833,143.3,-15.56,72,31,3.29,RU,1731196420
505,Piacabucu,-10.4056,-36.4344,25.48,82,82,6.85,BR,1731196421
506,Tazacorte,28.629,-17.9293,25.64,29,0,4.02,ES,1731196423
507,Kievka,50.2619,71.5514,-2.67,94,100,12.17,KZ,1731196425
508,Anlu,31.1661,112.5831,14.42,80,72,2.66,CN,1731196427
509,Kapuskasing,49.4169,-82.4331,6.05,56,20,6.69,CA,1731196429
510,Sterling,39.0062,-77.4286,9.77,51,0,0.0,US,1731196431
511,Spring creek,40.7266,-115.5859,14.83,33,15,0.89,US,1731196432
512,Quellon,-43.1167,-73.6167,7.59,85,70,1.37,CL,1731196434
513,Zakamensk,50.3741,103.2863,-9.0,75,43,0.4,RU,1731196436
514,Miramichi,47.0043,-65.4654,-0.72,58,6,4.08,CA,1731196438
515,Swakopmund,-22.6833,14.5333,16.66,78,20,2.24,NA,1731196440
516,Castillos,-34.1667,-53.8333,13.86,83,0,2.69,UY,1731196441
517,Puerto san jose,13.9256,-90.8244,27.03,83,100,3.09,GT,1731196443
518,Masterton,-40.9597,175.6575,13.73,95,100,0.5,NZ,1731196445
519,Yangjiang,21.85,111.9667,23.78,58,100,4.0,CN,1731196447
520,Kenai,60.5544,-151.2583,3.41,71,100,8.75,US,1731196449
521,Anqing,30.5092,117.0506,17.6,85,76,0.99,CN,1731196450
522,Kibungan,16.695,120.6553,17.99,72,5,0.57,PH,1731196452
523,Dongola,19.1667,30.4833,21.3,32,3,5.13,SD,1731196454
524,Darlowo,54.421,16.4107,3.77,87,1,3.51,PL,1731196456
525,Sadjoavato,-12.6334,49.349,21.06,80,0,1.13,MG,1731196458
526,Viqueque,-8.8673,126.3658,29.57,58,43,2.16,TL,1731196460
527,Weno,7.4515,151.8468,30.97,70,75,3.09,FM,1731196463
528,Polyarnyy,69.1989,33.4478,2.81,78,99,10.08,RU,1731196465
529,Dalandzadgad,43.5708,104.425,3.2,41,27,4.9,MN,1731196467
530,Plastun,44.7561,136.2939,5.43,68,28,1.04,RU,1731196469
531,Kerewan,13.4898,-16.0888,24.37,50,0,1.71,GM,1731196471
532,Djibo,14.1022,-1.6306,25.36,18,5,4.16,BF,1731196473
533,Ar rutbah,33.0381,40.2848,14.17,47,96,4.22,IQ,1731196475
534,Petukhovo,55.0692,67.9019,0.15,98,100,7.31,RU,1731196476
535,Adam,22.3756,57.5233,22.58,65,0,1.55,OM,1731196478
536,Murudeshwara,14.0943,74.4845,28.33,54,5,1.74,IN,1731196480
537,Minas de marcona,-15.2119,-75.1103,15.22,72,100,4.49,PE,1731196482
538,Kavaratti,10.5669,72.642,27.86,72,5,1.51,IN,1731196484
539,Emerald,-23.5333,148.1667,30.19,47,31,6.17,AU,1731196486
540,Samho-rodongjagu,39.9475,127.8711,11.86,61,99,1.55,KP,1731196487
541,Metro,-5.1131,105.3067,26.11,86,98,0.91,ID,1731196489
542,Hamlin,43.3031,-77.9211,5.47,75,25,2.75,US,1731196491
543,Bulungu,-4.55,18.6,20.04,99,100,1.28,CD,1731196493
544,Chul'man,56.8479,124.9104,-11.54,93,100,3.59,RU,1731196495
545,Eirunepe,-6.6603,-69.8736,24.5,93,100,0.97,BR,1731196497
546,Burang,30.25,81.1667,-0.33,82,18,1.33,CN,1731196499
547,Ujae,8.9322,165.7642,28.53,79,31,8.58,MH,1731196501
548,Gebeit,21.0667,36.3167,21.49,79,40,2.2,SD,1731196503
549,Lake havasu city,34.4839,-114.3224,23.29,15,0,0.0,US,1731196506
550,Tailai,46.3833,123.4,6.48,49,85,7.99,CN,1731196509
551,Aripuana,-9.1667,-60.6333,24.35,89,100,0.63,BR,1731196512
552,Sultanah,24.4926,39.5857,27.25,22,0,3.09,SA,1731196514
553,Calderitas,18.55,-88.25,26.61,84,92,1.82,MX,1731196516
554,Aljezur,37.3191,-8.8033,15.54,71,100,3.19,PT,1731196520
555,Boden,65.8252,21.6886,0.29,80,81,1.25,SE,1731196521
556,Sao felix do xingu,-6.6447,-51.995,26.4,70,77,1.22,BR,1731196523
557,Prince george,53.9166,-122.753,0.69,94,100,0.0,CA,1731196525
558,Anaconda,46.1285,-112.9423,6.25,72,15,2.65,US,1731196527
559,Luena,-11.7833,19.9167,16.1,97,83,1.7,AO,1731196529
560,Casino,-28.8667,153.05,30.37,51,68,1.82,AU,1731196531
561,Robbah,33.2797,6.9098,15.8,44,22,1.77,DZ,1731196532
562,Bernay,49.1667,0.6667,10.07,94,100,2.02,FR,1731196534
563,Saint-joseph,-21.3667,55.6167,22.21,84,37,3.66,RE,1731196536
564,Hlybokaye,55.1382,27.6879,2.56,96,44,2.11,BY,1731196538
565,Kiama,-34.6833,150.8667,24.65,75,72,0.45,AU,1731196540
566,Gueret,46.1667,1.8667,9.22,99,52,0.76,FR,1731196541
567,Alaghsas,17.0187,8.0168,21.58,22,45,7.41,NE,1731196543
568,Saint-louis,16.3333,-15.0,28.28,14,18,4.16,SN,1731196545
569,Necochea,-38.5473,-58.7368,19.11,71,100,3.61,AR,1731196547
570,Hacienda huancane,-15.8222,-70.8856,8.58,39,82,3.45,PE,1731196549
571,Mangrol,21.1167,70.1167,26.38,63,22,3.61,IN,1731196551
572,Downpatrick,54.3263,-5.7035,11.96,96,100,5.04,GB,1731196553
573,Banda aceh,5.5577,95.3222,25.84,78,100,2.74,ID,1731196554
574,Paracuru,-3.41,-39.0306,25.79,82,8,5.88,BR,1731196556
575,Meadow lakes,61.6247,-149.6011,4.23,60,100,5.66,US,1731196558
576,Jwaneng,-24.6004,24.7303,18.76,78,45,3.17,BW,1731196560
577,Abhar,36.1468,49.218,4.22,88,9,1.29,IR,1731196562
578,Mossel bay,-34.1831,22.146,14.96,80,79,7.18,ZA,1731196563
579,Businga,3.3333,20.8833,21.17,99,100,1.21,CD,1731196565
580,Mariehamn,60.0973,19.9348,2.92,100,100,0.51,AX,1731196567
581,Sur,22.5667,59.5289,26.14,60,0,2.66,OM,1731196569
582,Molina,-35.1167,-71.2833,20.76,58,0,4.12,CL,1731196571
583,Puerto lempira,15.2667,-83.7667,29.08,74,20,4.12,HN,1731196573
584,Xichang,27.8964,102.2634,9.63,91,7,0.88,CN,1731196574
585,Sinabang,2.4803,96.3801,25.24,91,100,1.64,ID,1731196576
586,Khovd,48.0056,91.6419,-4.42,61,24,1.63,MN,1731196578
587,Keetmanshoop,-26.5833,18.1333,20.51,32,47,2.57,NA,1731196580
588,Brookings,44.3114,-96.7984,8.0,97,100,5.66,US,1731196582
589,Scarborough,54.2797,-0.4044,7.69,70,100,1.93,GB,1731196583
590,Fortuna,40.5982,-124.1573,13.88,68,0,3.6,US,1731196585
591,Pyhajarvi,67.0701,27.2176,-2.23,86,34,1.74,FI,1731196587
592,Pangody,65.85,74.4859,-6.15,95,100,5.81,RU,1731196589
593,Barrouallie,13.2333,-61.2667,26.79,78,75,1.54,VC,1731196591
594,Nianzishan,47.5167,122.8833,2.65,49,56,7.8,CN,1731196592
595,Yuktae-dong,40.0247,128.1597,11.99,61,99,1.48,KP,1731196594
596,Jayapura,-2.5333,140.7,28.66,69,67,1.48,ID,1731196596
597,Oamaru,-45.0784,170.9801,12.34,70,87,7.07,NZ,1731196598
598,Safi,32.1667,-8.8333,22.59,44,100,2.75,MA,1731196600
599,Pigeon forge,35.7884,-83.5543,19.99,77,20,0.0,US,1731196602
600,Trogir,43.5125,16.2517,14.03,47,0,3.6,HR,1731196603
601,Paulden,34.8856,-112.4682,18.1,27,0,0.7,US,1731196350
602,Dhalie,13.6957,44.7314,18.32,69,33,0.97,YE,1731196607
